,Hotel_Name,Hotel_Address,lat,lng,Reviewer_Average_Score,Total_No_Of_Reviewers,Non_Reviewer_Average_Score
405,K K Hotel George,1 15 Templeton Place Earl s Court Kensington and Chelsea London SW5 9NB United Kingdom,51.4918878,-0.1949706,8.60282685512,566,8.26147540984
971,Apex Temple Court Hotel,1 2 Serjeant s Inn Fleet Street City of London London EC4Y 1LL United Kingdom,51.5137335,-0.1087512,9.29884281581,1037,9.03959311424
2008,The Park Grand London Paddington,1 3 Queens Garden Westminster Borough London W2 3BA United Kingdom,51.5142184,-0.1809032,7.71146892655,1770,7.68081285444
3832,The Principal London,1 8 Russell Square Camden London WC1B 5BE United Kingdom,51.5226217,-0.1251602,8.02933333333,1425,7.94226519337
5257,Park Plaza County Hall London,1 Addington Street Lambeth London SE1 7RY United Kingdom,51.5014001,-0.1160092,8.36954565902,2223,8.45121028744
7480,One Aldwych,1 Aldwych Westminster Borough London WC2B 4BZ United Kingdom,51.5117832,-0.1194172,9.14485294118,136,9.325
7961,InterContinental London Park Lane,1 Hamilton Place Park Lane Westminster Borough London W1J 7QY United Kingdom,51.5038632,-0.1504132,8.2925,160,8.7049382716
8301,Grand Royale London Hyde Park,1 Inverness Terrace Westminster Borough London W2 3JP United Kingdom,51.5109945,-0.1863417,7.61561866126,2958,7.89591836735
11259,Milestone Hotel Kensington,1 Kensington Court Kensington and Chelsea London W8 5DL United Kingdom,51.5020425,-0.1866541,9.57209302326,86,9.345
11345,Crowne Plaza London Kings Cross,1 Kings Cross Road Islington London WC1X 9HX United Kingdom,51.5263854,-0.1136042,7.95829195631,1007,8.32722929936
13425,Novotel London West,1 Shortlands Hammersmith and Fulham London W6 8DR United Kingdom,51.4919588,-0.2200956,8.24224473889,1283,8.40525568182
14708,Haymarket Hotel,1 Suffolk Place Westminster Borough London SW1Y 4HX United Kingdom,51.5084595,-0.1311382,9.59090909091,121,9.61617647059
14829,Intercontinental London The O2,1 Waterview Drive Greenwich London SE10 0TW United Kingdom,51.5024348,-0.0002497,9.45119560956,2551,9.29618441971
17922,Knightsbridge Hotel,10 Beaufort Gardens Kensington and Chelsea London SW3 1PT United Kingdom,51.4980052,-0.1643238,9.10057803468,173,9.0992248062
18095,The London EDITION,10 Berners Street Westminster Borough London W1T 3NP United Kingdom,51.5167472,-0.135965,9.12907801418,141,9.05176470588
18236,The Cranley Hotel,10 Bina Gardens South Kensington Kensington and Chelsea London SW5 0LA United Kingdom,51.4916378,-0.1832833,7.698125,160,8.01168831169
18445,The Nadler Soho,10 Carlisle Street Westminster Borough London W1D 3BR United Kingdom,51.5147387,-0.1341108,9.15580448065,491,8.76747720365
18936,Grange St Paul s Hotel,10 Godliman Street City of London London EC4V 5AJ United Kingdom,51.5127625,-0.0997157,8.49150779896,1154,8.51243654822
20090,The Ampersand Hotel,10 Harrington Road Kensington and Chelsea London SW7 3ER United Kingdom,51.4943077,-0.1755579,9.18534031414,382,8.95181818182
20472,Covent Garden Hotel,10 Monmouth Street Camden London WC2H 9HB United Kingdom,51.5145986,-0.1270336,9.58783783784,74,9.09782608696
20546,The Nadler Victoria,10 Palace Place Westminster Borough London SW1E 5BW United Kingdom,51.4990259,-0.1427453,9.31214642263,601,9.27590759076
21147,Novotel London Tower Bridge,10 Pepys Street City of London London EC3N 2NR United Kingdom,51.5106538,-0.0773676,8.72082262211,389,8.38139534884
22607,W London Leicester Square,10 Wardour Street Leicester Square Westminster Borough London W1D 6QF United Kingdom,51.510843,-0.1314287,8.31235955056,267,8.49176470588
22874,The Victoria,10 West Temple Sheen London SW14 7RT United Kingdom,51.4611219,-0.2756216,8.27037037037,162,8.36857142857
23036,Pullman London St Pancras,100 110 Euston Road Camden London NW1 2AJ United Kingdom,51.5286766,-0.1283489,8.8998389694,1242,8.90027472527
24278,Crowne Plaza London Kensington,100 Cromwell Road Kensington and Chelsea London SW7 4ER United Kingdom,51.495179,-0.183827,8.64360655738,305,8.79772727273
24583,Doubletree by Hilton London Kensington,100 Queen s Gate Kensington and Chelsea London SW7 5AG United Kingdom,51.4925138,-0.1787917,7.96937561943,1009,8.05711645102
25592,Ace Hotel London Shoreditch,100 Shoreditch High Street Hackney London E1 6JQ United Kingdom,51.5254162,-0.0772849,8.68307392996,514,8.49430693069
26106,Staybridge Suites London Vauxhall,100 Vauxhall Walk Lambeth London SE11 5AL United Kingdom,51.4891226,-0.1205639,9.31885245902,244,8.8914893617
26350,The Grosvenor,101 Buckingham Palace Road Westminster Borough London SW1W 0SJ United Kingdom,51.4956657,-0.1452793,8.34976928148,1517,8.49093078759
27867,The Park Tower Knightsbridge a Luxury Collection Hotel,101 Knightsbridge Westminster Borough London SW1X 7RN United Kingdom,51.5014191,-0.1625805,8.03454545455,275,8.35066225166
28757,Thistle Kensington Gardens,104 Bayswater Rd Westminster Borough London W2 3HL United Kingdom,51.5108439,-0.1839074,8.25266821346,862,8.1025751073
29619,Park Plaza Sherlock Holmes London,108 Baker Street Westminster Borough London W1U 6LJ United Kingdom,51.5209191,-0.1566567,8.09256756757,592,8.38651026393
30320,The Kensington Hotel,109 113 Queen s Gate Kensington and Chelsea London SW7 5LR United Kingdom,51.4925478,-0.1780611,8.72972972973,333,8.65330188679
30653,Holiday Inn London Stratford City,10a Chestnut Plaza Westfield Stratford City Olympic Park Newham London E20 1GL United Kingdom,51.5426054,-0.0072708,8.67937625755,994,8.73198127925
31647,Staybridge Suites London Stratford,10b Chestnut Plaza Westfield Stratford City Olympic Park Newham London E20 1GL United Kingdom,51.5426351,-0.0073272,9.20469387755,490,9.19072580645
32137,Shepherd s Bush Boutique Hotel,11 12 Poplar Mews Shepherd s Bush Hammersmith and Fulham London W12 7JS United Kingdom,51.5054544,-0.2262216,8.04048964218,531,7.90528634361
32668,My Bloomsbury,11 13 Bayley Street Bedford Square Camden London WC1B 3HD United Kingdom,51.5188555,-0.1319172,7.96349892009,463,8.34980237154
33703,11 Cadogan Gardens,11 Cadogan Gardens Sloane Square Kensington and Chelsea London SW3 2RJ United Kingdom,51.4936161,-0.1592347,8.84528301887,159,8.47128712871
33862,The Wellesley Knightsbridge a Luxury Collection Hotel London,11 Knightsbridge Westminster Borough London SW1X 7LY United Kingdom,51.502485,-0.1539265,9.09480519481,77,8.86964285714
34660,The Rembrandt,11 Thurloe Place Knightsbridge Kensington and Chelsea London SW7 2RS United Kingdom,51.4959227,-0.1702917,8.5941011236,712,8.34085510689
35804,Ashburn Hotel,111 Cromwell Road Kensington and Chelsea London SW7 4DP United Kingdom,51.4945522,-0.1861213,8.65606694561,239,8.49105691057
36043,Marlin Waterloo,111 Westminster Bridge Road Lambeth London SE1 7JD United Kingdom,51.4990953,-0.1132136,8.35476190476,84,9.09047619048
36359,Novotel London Waterloo,113 Lambeth Rd Lambeth London SE1 7LS United Kingdom,51.4948465,-0.1187481,8.0118466899,287,8.50681818182
36646,The Athenaeum,116 Piccadilly Westminster Borough London W1J 7BJ United Kingdom,51.504716,-0.1475618,7.97830687831,189,8.31904761905
36835,Park International Hotel,117 129 Cromwell Road Kensington and Chelsea London SW7 4DS United Kingdom,51.4945144,-0.1866172,7.68167330677,502,8.05938864629
37337,Lansbury Heritage Hotel,117 Poplar High Street Tower Hamlets London E14 0AE United Kingdom,51.5090985,-0.0157302,9.5175,40,9.19565217391
38139,Batty Langley s,12 Folgate Street City of London London E1 6BX United Kingdom,51.5208575,-0.0779503,9.41101449275,345,9.3807106599
38484,Best Western Mornington Hotel Hyde Park,12 Lancaster Gate Lancaster Gate Westminster Borough London W2 3LG United Kingdom,51.5119933,-0.1782794,7.97900485437,824,8.03931818182
39308,Arbor City,12 Osborn Street Aldgate East Tower Hamlets London E1 6TE United Kingdom,51.5166755,-0.0697897,8.88719590269,781,8.92475247525
40750,Ambassadors Bloomsbury,12 Upper Woburn Place Camden London WC1H 0HX United Kingdom,51.5266618,-0.1296571,7.84583333333,768,8.00452261307
41701,The Bryson Hotel,124 Clerkenwell Rd Camden London EC1R 5DJ United Kingdom,51.5220869,-0.1082443,7.80846153846,130,7.78382352941
41889,London Marriott Hotel Regents Park,128 King Henry s Road Camden London NW3 3ST United Kingdom,51.5421476,-0.1703073,8.22925531915,752,8.43400503778
42641,Hilton London Hyde Park,129 Bayswater Road London W2 4RJ United Kingdom,51.51046,-0.1875844,7.64401544402,259,8.06405228758
42900,Staunton Hotel B B,13 15 Gower Street Camden London WC1E 6HE United Kingdom,51.520378,-0.1303414,8.4,248,8.07657657658
44050,Mercure London Bloomsbury Hotel,130 134 Southampton Row Camden London WC1B 5AF United Kingdom,51.5210085,-0.1230966,8.44534883721,602,8.00735785953
44652,The Chamberlain,130 135 Minories City of London London EC3N 1NU United Kingdom,51.5122457,-0.0757326,9.03529411765,969,8.61806451613
45621,Radisson Blu Edwardian Grafton,130 Tottenham Court Road Camden London W1T 5AY United Kingdom,51.5241386,-0.1380807,8.37784342688,1354,8.15217391304
47016,London Marriott Hotel Marble Arch,134 George Street Westminster Borough London W1H 5DN United Kingdom,51.5163841,-0.1635764,8.31229166667,480,8.02724358974
47496,Saint Georges Hotel,14 15 Langham Place Westminster Borough London W1B 2QS United Kingdom,51.517839,-0.1424476,7.40686813187,728,7.68423913043
48224,Park Grand London Lancaster Gate,14 16 Craven Hill Lancaster Gate Westminster Borough London W2 3DU United Kingdom,51.5132069,-0.1807816,8.85683453237,556,8.69065743945
48780,The Henrietta Hotel,14 Henrietta Street Westminster Borough London WC2E 8QH United Kingdom,51.5109079,-0.1238221,9.18518518519,27,9.23636363636
49577,The Bailey s Hotel London,140 Gloucester Road Kensington and Chelsea London SW7 4QH United Kingdom,51.4938733,-0.1824963,8.69410609037,1018,8.71136363636
50595,London Marriott Hotel Park Lane,140 Park Lane Westminster Borough London W1K 7AA United Kingdom,51.5131428,-0.1576714,8.62051282051,78,9.0641509434
50878,Hotel Indigo London Tower Hill,142 Minories City of London London EC3N 1LS United Kingdom,51.5128032,-0.07586,9.33815028902,346,8.94708994709
51224,Windermere Hotel,142 To 144 Warwick Way Victoria Westminster Borough London SW1V 4JE United Kingdom,51.4903724,-0.1459218,8.95052631579,95,7.93225806452
51497,Mercure London Paddington Hotel,144 Praed St Paddington Westminster Borough London W2 1HU United Kingdom,51.5161139,-0.1749521,7.55220820189,634,7.69558359621
52131,Hilton London Paddington,146 Praed Street Westminster Borough London W2 1EE United Kingdom,51.515632,-0.175737,8.09725792631,1167,8.37452692868
53298,London Marriott Hotel Kensington,147 Cromwell Road Kensington and Chelsea London SW5 0TH United Kingdom,51.4944849,-0.1884174,7.98518518519,189,8.02666666667
53487,Kensington House Hotel,15 16 Prince Of Wales Terrace Kensington and Chelsea London W8 5PQ United Kingdom,51.5012329,-0.1859937,8.30334572491,269,8.01948051948
53756,Charlotte Street Hotel,15 17 Charlotte Street Hotel Westminster Borough London W1T 1RJ United Kingdom,51.5184158,-0.1348509,9.48865248227,141,9.51818181818
53897,The Goring,15 Beeston Place Westminster Borough London SW1W 0JW United Kingdom,51.4975621,-0.145551,9.43823529412,102,9.34179104478
54026,The Pelham Starhotels Collezione,15 Cromwell Place Kensington and Chelsea London SW7 2LA United Kingdom,51.4943935,-0.1750169,8.55667870036,277,8.66896551724
54303,The Montague On The Gardens,15 Montague St Bloomsbury Camden London WC1B 5BJ United Kingdom,51.520181,-0.1256957,9.37560386473,414,9.14030612245
55811,The Leonard Hotel,15 Seymour Street Westminster Borough London W1H 7JW United Kingdom,51.5147071,-0.1578291,8.15770114943,435,8.271875
56246,DoubleTree by Hilton London Hyde Park,150 Bayswater Road Kensington and Chelsea London W2 4RT United Kingdom,51.5100362,-0.190657,8.45439153439,945,8.28801742919
57191,The Ritz London,150 Piccadilly Westminster Borough London W1J 9BR United Kingdom,51.5069446,-0.1415776,9.41699507389,406,9.08409090909
57597,M by Montcalm Shoreditch London Tech City,151 157 City Road Shoreditch Islington London EC1V 1JS United Kingdom,51.5278465,-0.0889473,9.08635730858,2155,9.11998640381
59830,Clayton Crown Hotel London,152 Cricklewood Broadway Cricklewood London NW2 3ED United Kingdom,51.5561548,-0.2141824,7.99508804449,1079,8.0103515625
61075,St Paul s Hotel,153 Hammersmith Road Hammersmith and Fulham London W14 0QL United Kingdom,51.4934752,-0.2153256,8.96194225722,381,9.07107843137
61644,The Bloomsbury Hotel,16 22 Great Russell Street Camden London WC1B 3NN United Kingdom,51.5171671,-0.1290534,9.06196660482,539,8.88866666667
62502,Hotel Indigo London Paddington,16 London Street Paddington Westminster Borough London W2 1HL United Kingdom,51.5150534,-0.1739974,8.72276119403,268,8.64649122807
63229,Number Sixteen,16 Sumner Place Kensington and Chelsea London SW7 3EG United Kingdom,51.4930905,-0.1755022,9.04942528736,87,9.1602739726
63316,Hotel Xenia Autograph Collection,160 Cromwell Road Kensington Kensington and Chelsea London SW5 0TL United Kingdom,51.4946905,-0.1910197,9.075,296,8.85
63942,Britannia International Hotel Canary Wharf,163 Marsh Wall Docklands Tower Hamlets London E14 9SJ United Kingdom,51.5019097,-0.0232208,6.8266443934,4789,7.58810589113
68998,Hilton London Euston,17 18 Upper Woburn Place Camden London WC1H 0HT United Kingdom,51.5265189,-0.1303689,7.12085106383,470,8.06262626263
69468,Egerton House,17 19 Egerton Terrace Knightsbridge Kensington and Chelsea London SW3 2BX United Kingdom,51.4968406,-0.1675498,9.51973684211,76,8.91162790698
69544,Millennium Hotel London Knightsbridge,17 25 Sloane Street Knightsbridge Kensington and Chelsea London SW1X 9NU United Kingdom,51.4999683,-0.1599927,7.44836146971,1007,7.56851119895
70751,Hotel La Place,17 Nottingham Place Westminster Borough London W1U 5LG United Kingdom,51.5215257,-0.1533039,7.6392,125,7.51090909091
71623,Bulgari Hotel London,171 Knightsbridge Westminster Borough London SW7 1DW United Kingdom,51.5015721,-0.1628511,9.52972972973,37,9.16290322581
71660,Novotel London Greenwich,173 185 Greenwich High Rd Greenwich London SE10 8JA United Kingdom,51.4778583,-0.0137463,8.58511904762,504,8.62737226277
72164,Park Avenue Baker Street,173 Gloucester Place Westminster Borough London NW1 6DX United Kingdom,51.5241452,-0.1609907,7.66545240893,851,7.76282051282
73225,Malmaison London,18 21 Charterhouse Square Islington London EC1M 6AH United Kingdom,51.520943,-0.1004581,8.69134993447,763,8.71531322506
73988,The Park City Grand Plaza Kensington Hotel,18 30 Lexham Gardens Kensington and Chelsea London W8 5JE United Kingdom,51.4954976,-0.1893691,8.49829787234,235,7.9598540146
74223,Park Plaza London Riverbank,18 Albert Embankment Lambeth London SE1 7TJ United Kingdom,51.4913737,-0.1214194,8.22893401015,2167,8.42887029289
77236,Danubius Hotel Regents Park,18 Lodge Road Near Baker Street And Marylebone Westminster Borough London NW8 7JT United Kingdom,51.529257,-0.168358,8.12782462057,593,8.0544198895
78366,The Rockwell,181 Cromwell Road Kensington and Chelsea London SW5 0SF United Kingdom,51.4948059,-0.1926525,8.58115942029,552,8.63781818182
78918,The LaLit London,181 Tooley Street Southwark London SE1 2JR United Kingdom,51.5032524,-0.078179,9.21290322581,62,9.41739130435
79054,Courthouse Hotel London,19 21 Gt Marlborough St Westminster Borough London W1F 7HL United Kingdom,51.5143624,-0.1394483,7.86978085352,867,8.31802816901
79921,Best Western The Boltons Hotel London Kensington,19 21 Penywern Road Kensington and Chelsea London SW5 9TT United Kingdom,51.4907493,-0.1934627,7.72896174863,549,7.63614457831
80470,Radisson Blu Edwardian Sussex,19 25 Granville Place Marble Arch Westminster Borough London W1H 6PA United Kingdom,51.5144381,-0.1558337,7.87329842932,573,8.31025641026
81158,The Pillar Hotel,19 Brent Street Brent Cross London NW4 2EU United Kingdom,51.583236,-0.216868,8.39603960396,101,8.98148148148
81259,Crowne Plaza London The City,19 New Bridge Street City of London London EC4V 6DB United Kingdom,51.5122429,-0.1045036,8.75934579439,214,8.32936507937
82576,The Gore Hotel Starhotels Collezione,190 Queen s Gate Kensington and Chelsea London SW7 5EX United Kingdom,51.5001979,-0.1795357,8.56833013436,521,8.67268722467
83097,The Hoxton Holborn,199 206 High Holborn Camden London WC1V 7BD United Kingdom,51.5172398,-0.1220324,9.22529801325,755,9.15463182898
83852,Mercure London Kensington Hotel,1a Lexham Gardens Kensington and Chelsea London W8 5JJ United Kingdom,51.4950098,-0.1906195,7.46199095023,442,7.57567567568
84294,Royal Garden Hotel,2 24 Kensington High St Kensington and Chelsea London W8 4PT United Kingdom,51.5027022,-0.1882164,8.82219679634,874,8.76855753647
85168,Boundary Rooms Suites,2 4 Boundary Street Hackney London E2 7DD United Kingdom,51.5244224,-0.0764614,8.44166666667,12,8.35833333333
85269,Grange White Hall Hotel,2 5 Montague Street Bloomsbury Camden London WC1B 5BU United Kingdom,51.5203469,-0.1260893,7.94857142857,210,7.798
85479,Hilton London Bankside,2 8 Great Suffolk Street Southwark London SE1 0UG United Kingdom,51.5056956,-0.101525,9.2771556551,893,9.33578947368
86372,DoubleTree by Hilton London Ealing,2 8 Hanger Lane Ealing Common London W5 3HN United Kingdom,51.511521,-0.290706,8.32897058824,680,8.51129032258
87197,DoubleTree by Hilton London Victoria,2 Bridge Place Victoria Westminster Borough London SW1V 1QA United Kingdom,51.49398,-0.143372,8.44223894638,1063,8.33196969697
88260,St Ermin s Hotel Autograph Collection,2 Caxton Street Westminster Borough London SW1H 0QW United Kingdom,51.498905,-0.1339093,8.87578125,384,8.94025974026
88644,Montagu Place Hotel,2 Montagu Place Westminster Borough London W1H 2ER United Kingdom,51.5191009,-0.1592,9.0045045045,111,9.26307692308
91169,The Trafalgar Hilton,2 Spring Gardens Trafalgar Square Westminster Borough London SW1A 2TS United Kingdom,51.507374,-0.129135,8.07190082645,363,8.16035502959
91532,Park Lane Mews Hotel,2 Stanhope Row Park Lane Westminster Borough London W1J 7BS United Kingdom,51.5059334,-0.1489418,6.897256386,1057,7.24459459459
92589,Old Ship Inn Hackney,2 Sylvester Path Hackney London E8 1EN United Kingdom,51.5458476,-0.0554113,7.83285714286,140,8.01604938272
92729,The Drayton Court Hotel,2 The Avenue Ealing London W13 8PH United Kingdom,51.5141842,-0.3192925,8.76470588235,391,8.87379679144
93120,The Montcalm Marble Arch,2 Wallenberg Place Westminster Borough London W1H 7TN United Kingdom,51.5150522,-0.159239,8.97323279925,1061,8.78689956332
94181,The Colonnade,2 Warrington Crescent Westminster Borough London W9 1ER United Kingdom,51.5243286,-0.1846623,7.66865671642,201,8.13
94382,The Royal Horseguards,2 Whitehall Court Westminster Borough London SW1A 2EJ United Kingdom,51.5054185,-0.1241499,8.9226899384,974,8.85347368421
95356,Grange Fitzrovia Hotel,20 28 Bolsover Street Westminster Borough London W1W 5NB United Kingdom,51.521759,-0.1425381,7.95846153846,455,8.34674329502
95942,The Hari London,20 Chesham Place Kensington and Chelsea London SW1X 8HQ United Kingdom,51.4973203,-0.1562558,9.20127659574,235,9.19847715736
96177,citizenM London Bankside,20 Lavington Street Southwark London SE1 0NZ United Kingdom,51.5051507,-0.1004724,9.11226104153,1517,9.07686567164
97694,Radisson Blu Edwardian Mercer Street,20 Mercer Street Covent Garden Camden London WC2H 9HD United Kingdom,51.5139275,-0.1271506,8.72777053455,767,8.64481865285
98461,Twenty Nevern Square Hotel,20 Nevern Square Kensington and Chelsea London SW5 9PD United Kingdom,51.4915712,-0.1963192,8.32396907216,776,8.23901639344
99237,The Abbey Court Notting Hill,20 Pembridge Gardens Kensington and Chelsea London W2 4DU United Kingdom,51.5101401,-0.1968951,7.87888888889,90,7.63488372093
100530,Mondrian London,20 Upper Ground Southwark London SE1 9PD United Kingdom,51.5084036,-0.1067988,9.11048336472,1593,9.08481818182
102123,Karma Sanctum Soho Hotel,20 Warwick Street Westminster Borough London W1B 5NF United Kingdom,51.5116049,-0.1383145,7.97150259067,193,8.32752293578
102316,NH London Kensington,202 220 Cromwell Road Kensington and Chelsea London SW5 0SW United Kingdom,51.4948507,-0.1945544,8.23777777778,225,8.12857142857
103716,Simply Rooms Suites,21 Avonmore Road Kensington Hammersmith and Fulham London W14 8RP United Kingdom,51.4944875,-0.2070605,7.63913043478,115,7.8320754717
103896,The Academy,21 Gower Street Camden London WC1E 6HG United Kingdom,51.5205441,-0.1308091,7.89069767442,258,7.60819672131
104154,Le Meridien Piccadilly,21 Piccadilly Westminster Borough London W1J 0BH United Kingdom,51.5094835,-0.1362538,7.59576923077,260,7.60753424658
106134,The Kings Head Hotel,214 High Street Acton London London W3 9NX United Kingdom,51.5079153,-0.2730145,9.03604651163,86,8.6
107032,Montcalm Royal London House City of London,22 25 Finsbury Square City Islington London EC2A 1DX United Kingdom,51.5218066,-0.0856081,9.19468531469,715,9.20824295011
107747,Conrad London St James,22 28 Broadway Westminster Borough London SW1H 0BH United Kingdom,51.4993927,-0.1329128,9.04301675978,358,9.18429752066
108317,London Marriott Hotel West India Quay,22 Hertsmere Road Tower Hamlets London E14 4ED United Kingdom,51.5072713,-0.0211213,8.9786630655,1481,8.7747311828
109798,London Hilton on Park Lane,22 Park Lane Westminster Borough London W1K 1BE United Kingdom,51.5055513,-0.1501698,7.69305135952,331,7.91959459459
110129,Radisson Blu Portman Hotel London,22 Portman Square Westminster Borough London W1H 7BG United Kingdom,51.5161911,-0.1579487,7.79112903226,868,8.05829145729
111290,The Portobello Hotel,22 Stanley Gardens Kensington and Chelsea London W11 2NG United Kingdom,51.512257,-0.2034244,9.03232323232,99,8.60227272727
111525,Landmark London,222 Marylebone Road Westminster Borough London NW1 6JQ United Kingdom,51.519016,-0.166267,8.99432098765,405,9.00686567164
111930,Hilton London Metropole,225 Edgware Road Westminster Borough London W2 1JU United Kingdom,51.5195688,-0.170521,7.3152587519,2628,7.82693602694
114558,Best Western Seraphine Kensington Olympia,225 High Street Kensington Kensington and Chelsea London W8 6SA United Kingdom,51.4992791,-0.1973593,7.4179144385,374,7.35214285714
114932,Portobello House,225 Ladbroke Grove Kensington and Chelsea London W10 6HQ United Kingdom,51.5199224,-0.2116636,8.55877862595,131,8.11506849315
115165,Henry VIII,23 Leinster Gardens Westminster Borough London W2 3AN United Kingdom,51.5124655,-0.182274,6.78509485095,1107,7.5050955414
116272,Goodenough Club,23 Mecklenburgh Square Camden London WC1N 2AD United Kingdom,51.525535,-0.1180354,8.63927038627,466,8.19953703704
117112,London Suites,230 A Mile End Road Tower Hamlets London E1 4LJ United Kingdom,51.5215508,-0.0469238,7.32105263158,114,7.60454545455
117485,Park Plaza Victoria London,239 Vauxhall Bridge Road Westminster Borough London SW1V 1EQ United Kingdom,51.4942539,-0.1414756,8.5465003465,1443,8.68092243187
118928,Grange Beauchamp Hotel,24 27 Bedford Place Bloomsbury Camden London WC1B 5JH United Kingdom,51.5203266,-0.1245891,8.58224299065,321,8.63540372671
119249,The Franklin Hotel Starhotels Collezione,24 Egerton Gardens Kensington and Chelsea London SW3 2DB United Kingdom,51.4960283,-0.1686355,8.90714285714,28,8.65
119277,Club Quarters Hotel St Paul s,24 Ludgate Hill City of London London EC4M 7DR United Kingdom,51.5139298,-0.101126,8.46824408468,1606,8.28061002179
121850,The Nadler Kensington,25 Courtfield Gardens Kensington and Chelsea London SW5 0PG United Kingdom,51.4931086,-0.190208,9.00977596741,491,8.97837837838
122627,Rosewood London,252 High Holborn Holborn Camden London WC1V 7EN United Kingdom,51.5173303,-0.1180966,9.44897435897,390,9.325390625
123233,Mayflower Hotel Apartments,26 28 Trebovir Rd Kensington and Chelsea London SW5 9NJ United Kingdom,51.4916677,-0.1947475,7.48801410106,851,7.53109756098
124084,Caesar Hotel,26 33 Queens Gardens Westminster Borough London W2 3BE United Kingdom,51.5134603,-0.1833081,8.26372239748,317,8.10241545894
124401,Hotel Xanadu,26 42 Bond Street Ealing London W5 5AA United Kingdom,51.5117907,-0.306071,8.67578125,128,8.47875
124529,Draycott Hotel,26 Cadogan Gardens Kensington and Chelsea London SW3 2RP United Kingdom,51.4930097,-0.159715,9.07674418605,129,9.53125
124658,DoubleTree by Hilton London Docklands Riverside,265 Rotherhithe Street Southwark London SE16 5HW United Kingdom,51.5043483,-0.0334436,8.06339077783,2147,8.17899497487
126805,Bentley London,27 33 Harrington Gardens Kensington and Chelsea London SW7 4JX United Kingdom,51.4928147,-0.1841753,8.40151515152,198,8.3979020979
127024,Park Grand Paddington Court,27 Devonshire Terrace Westminster Borough London W2 3DP United Kingdom,51.5135555,-0.180002,8.18583916084,2288,7.94199517297
129397,The Zetter Townhouse Marylebone,28 30 Seymour Street Westminster Borough London W1H 7JB United Kingdom,51.514839,-0.1586656,9.39146341463,82,9.13333333333
129718,The Levin Hotel,28 Basil Street Kensington and Chelsea London SW3 1AS United Kingdom,51.4998574,-0.161717,9.37301587302,63,8.63513513514
129781,The Tophams Hotel,28 Ebury Street Westminster Borough London SW1W 0LU United Kingdom,51.4957436,-0.1477528,6.48,180,6.96
130183,H10 London Waterloo,284 To 302 Waterloo Road Southwark London SE1 8RQ United Kingdom,51.4988817,-0.1062888,8.40330578512,484,8.65
130667,San Domenico House,29 31 Draycott Place Kensington and Chelsea London SW3 2SH United Kingdom,51.4917798,-0.1616049,8.88360655738,122,9.18684210526
130789,Bloomsbury Palace Hotel,29 31 Gower Street Camden London WC1E 6HG United Kingdom,51.5207945,-0.1310845,6.73668499607,1273,6.97636761488
132593,Innkeeper s Lodge London Greenwich,291 Greenwich High Road Greenwich Greenwich London SE10 8NA United Kingdom,51.4801631,-0.0097201,8.28509036145,664,7.9766798419
133715,Holiday Inn London Mayfair,3 Berkeley Street Westminster Borough London W1J 8NE United Kingdom,51.507746,-0.1422993,8.05239567233,647,7.91307692308
134761,Paddington Court Executive Rooms,3 Devonshire Terrace Westminster Borough London W2 3DN United Kingdom,51.5138357,-0.1797976,7.90215827338,278,7.8953125
135039,Novotel London Paddington,3 Kingdom Street Sheldon Square Westminster Borough London W2 6BD United Kingdom,51.519032,-0.1825943,8.43810741688,391,8.60431034483
137888,South Place Hotel,3 South Place City of London London EC2M 2AF United Kingdom,51.5189182,-0.0866009,9.26717791411,326,9.34553191489
138214,The Royal Park Hotel,3 Westbourne Terrace Lancaster Gate Westminster Borough London W2 3UL United Kingdom,51.5142054,-0.1766098,8.75068493151,146,8.54255319149
138470,Henley House Hotel,30 Barkston Gardens Kensington and Chelsea London SW5 0EN United Kingdom,51.4922348,-0.1914229,8.60190930788,419,8.59416058394
138889,Holiday Inn London Camden Lock,30 Jamestown Road Camden London NW1 7BY United Kingdom,51.5404555,-0.1460833,8.73324324324,740,8.36411483254
139629,DoubleTree by Hilton London Westminster,30 John Islip St Westminster Borough London SW1P 4DD United Kingdom,51.4932356,-0.1269082,8.49074818986,1243,8.51425030979
140872,Blakemore Hyde Park,30 Leinster Gardens Bayswater Westminster Borough London W2 3AN United Kingdom,51.5129736,-0.1837431,8.52672176309,2178,8.45141903172
143050,Hyatt Regency London The Churchill,30 Portman Square Westminster Borough London W1H 7BH United Kingdom,51.5156471,-0.1572443,8.633984375,256,8.76123188406
143306,Rathbone,30 Rathbone Street West End Westminster Borough London W1T 1LB United Kingdom,51.5186801,-0.1354055,8.28728813559,354,8.32261306533
143975,Comfort Inn Suites Kings Cross St Pancras,31 33 Argyle Street Camden London WC1H 8EP United Kingdom,51.5289499,-0.1232979,8.12239819005,442,8.05479452055
144417,The Queens Gate Hotel,31 34 Queen s Gate Kensington and Chelsea London SW7 5JA United Kingdom,51.4981225,-0.1799693,8.18893925657,1103,8.22328244275
145520,Grange Langham Court Hotel,31 35 Langham Street Westminster Borough London W1W 6BU United Kingdom,51.5189077,-0.1421957,7.97364864865,296,7.75068493151
145816,Radisson Blu Edwardian Hampshire,31 36 Leicester Square Westminster Borough London WC2H 7LH United Kingdom,51.509963,-0.129797,8.69770444763,697,8.70423280423
146634,The Marble Arch London,31 Great Cumberland Place Westminster Borough London W1H 7TA United Kingdom,51.5151247,-0.1600656,8.07201426025,561,8.14301369863
147504,Shangri La Hotel at The Shard London,31 St Thomas Street Southwark London SE1 9QU United Kingdom,51.5044972,-0.0855562,9.36855345912,1113,9.44781420765
149098,Park Grand London Kensington,33 37 Hogarth Road Kensington and Chelsea London SW5 0QQ United Kingdom,51.4938468,-0.1917582,8.47741622147,2059,8.23882709808
151157,Rocco Forte Brown s Hotel,33 Albemarle Street Mayfair Westminster Borough London W1S 4BP United Kingdom,51.5090558,-0.1421661,9.10408163265,49,9.09090909091
151493,The Beaufort,33 Beaufort Gardens Kensington and Chelsea London SW3 1PP United Kingdom,51.4978466,-0.164156,8.83476190476,210,8.74112903226
151965,Blakes Hotel,33 Roland Gardens Kensington and Chelsea London SW7 3PF United Kingdom,51.4892447,-0.1803196,7.97105263158,76,8.055
152770,The Westbridge Hotel,335 337 High Street Stratford Newham London E15 2TF United Kingdom,51.5373904,-0.0023367,8.98333333333,588,9.03344709898
153358,Courthouse Hotel Shoreditch,335 337 Old Street Hackney London EC1V 9LL United Kingdom,51.5273442,-0.0796152,8.82972972973,259,9.02638888889
153617,ME London by Melia,336 337 Strand London Westminster Borough London WC2R 1HA United Kingdom,51.511879,-0.118552,9.16624203822,471,9.24608695652
154088,Grange Clarendon Hotel,34 37 Bedford Place Bloomsbury Camden London WC1B 5JR United Kingdom,51.5197933,-0.1241844,8.05311653117,369,8.20116959064
154457,Hotel Indigo London Kensington,34 44 Barkston Gardens Kensington and Chelsea London SW5 0EW United Kingdom,51.4920287,-0.1917801,9.22974504249,353,8.78843537415
154911,Rafayel Hotel Spa,34 Lombard Road Battersea London SW11 3RF United Kingdom,51.4703604,-0.1779869,7.84534883721,774,8.25360169492
155685,Norfolk Towers Paddington,34 Norfolk Place Paddington Westminster Borough London W2 1QW United Kingdom,51.5162883,-0.1721078,7.88465055519,1531,7.93706624606
157843,Best Western Maitrise Hotel Edgware Road,346 348 Edgware Road Westminster Borough London W2 1EA United Kingdom,51.521148,-0.171346,6.375,220,7.27808219178
158063,Georgian House Hotel,35 39 St Georges Drive Westminster Borough London SW1V 4DG United Kingdom,51.490724,-0.143868,8.35945121951,328,8.51083333333
158465,The Chesterfield Mayfair,35 Charles Street Mayfair Westminster Borough London W1J 5EB United Kingdom,51.5076899,-0.1471358,9.23713692946,482,8.8376984127
158947,My Chelsea,35 Ixworth Place Kensington and Chelsea London SW3 3QX United Kingdom,51.4919083,-0.1684398,8.18062200957,418,8.23446808511
160073,Dukes Hotel,35 St James s Place Westminster Borough London SW1A 1NY United Kingdom,51.5055381,-0.1396885,8.80135135135,74,8.33859649123
160147,Radisson Blu Edwardian Berkshire,350 Oxford Street Westminster Borough London W1C 1BY United Kingdom,51.5146025,-0.1481978,8.05765765766,555,8.19325396825
160702,Pestana Chelsea Bridge Hotel Spa,354 Queenstown Road Battersea London SW8 4AE United Kingdom,51.4815995,-0.1481053,8.51957746479,710,8.70052816901
161412,Arbor Hyde Park,36 37 Lancaster Gate Westminster Borough London W2 3NA United Kingdom,51.5126488,-0.1803795,8.50157384988,826,8.13944099379
162278,Great St Helen Hotel,36 Great st Helens City of London London EC3A 6AP United Kingdom,51.5149583,-0.0823869,7.22192307692,520,7.75075757576
163345,United Lodge Hotel and Apartments,368 370 Green Lanes London N4 1DA United Kingdom,51.5743549,-0.0977567,7.38385650224,223,7.759
163653,Eccleston Square Hotel,37 Eccleston Square Westminster Borough London SW1V 1PB United Kingdom,51.4911924,-0.1449474,8.29825581395,172,8.92317073171
163825,Nottingham Place Hotel,37 Nottingham Place Westminster Borough London W1U 5LT United Kingdom,51.522143,-0.153385,8.15829959514,247,8.3
164259,Strand Palace Hotel,372 Strand Westminster Borough London WC2R 0JJ United Kingdom,51.5110993,-0.1208673,8.12885338346,4256,8.04632867133
168855,Hilton London Olympia,380 Kensington High Street Kensington and Chelsea London W14 8NL United Kingdom,51.4967399,-0.2064723,7.26231721035,889,7.67945205479
169744,Grange Buckingham Hotel,39 40 Bedford Place Bloomsbury Camden London WC1B 5JT United Kingdom,51.5196124,-0.1239628,8.65918367347,49,8.06666666667
169793,The Cleveland,39 40 Cleveland Square Westminster Borough London W2 6DA United Kingdom,51.5139692,-0.1828202,8.21626297578,289,8.16928104575
170082,Dorset Square Hotel,39 40 Dorset Square Hotel Westminster Borough London NW1 6QN United Kingdom,51.5226361,-0.1602871,9.01382113821,123,8.97213114754
170437,Rubens At The Palace,39 Buckingham Palace Road Westminster Borough London SW1W 0PS United Kingdom,51.4981471,-0.1436492,8.89058823529,765,8.26084337349
171202,every hotel Piccadilly,39 Coventry Street Westminster Borough London W1D 6BZ United Kingdom,51.5101462,-0.1315061,8.96778169014,568,8.50766871166
171770,Millennium Gloucester Hotel London,4 18 Harrington Gardens Kensington and Chelsea London SW7 4LH United Kingdom,51.4935083,-0.1834346,7.67360623782,2565,8.02451523546
174889,Fielding Hotel,4 Broad Court Bow Street Covent Garden Westminster Borough London WC2B 5QZ United Kingdom,51.5139315,-0.1219893,8.78281036835,733,8.49353741497
175622,DoubleTree by Hilton Hotel London Marble Arch,4 Bryanston St Marble Arch Westminster Borough London W1H 7BY United Kingdom,51.514573,-0.15666,7.97082352941,425,8.31529411765
176047,Holiday Inn London West,4 Portal Way Gypsy Corner A40 London W3 6RT United Kingdom,51.5210117,-0.2628618,7.98273894437,701,8.30498753117
176748,The Soho Hotel,4 Richmond Mews Westminster Borough London W1D 3DH United Kingdom,51.5139805,-0.1337948,9.5974522293,157,9.35700934579
178958,Andaz London Liverpool Street,40 Liverpool Street City of London London EC2M 7QN United Kingdom,51.5172825,-0.0812451,9.01888246628,519,8.97167630058
179477,Novotel London Canary Wharf,40 Marsh Wall Tower Hamlets London E14 9TP United Kingdom,51.5011704,-0.0232607,8.92465753425,146,9.10784313725
180550,citizenM Tower of London,40 trinity square City of London London EC3N 4DJ United Kingdom,51.510237,-0.0764428,9.13559120618,1683,9.02800480769
182233,Chiswick Rooms,407 Goldhawk Rd Chiswick London W6 0SA United Kingdom,51.4937409,-0.244896,7.85555555556,342,7.72578125
182575,Claridge s,41 43 Brook Street Westminster Borough London W1K 4HJ United Kingdom,51.5125035,-0.1477438,9.34394904459,157,9.20281690141
182732,La Suite West Hyde Park,41 51 Inverness Terrace Westminster Borough London W2 3JN United Kingdom,51.5126758,-0.1867828,7.74075342466,292,8.49155844156
183024,St James Court A Taj Hotel London,41 54 Buckingham Gate Westminster Borough London SW1E 6AF United Kingdom,51.4986732,-0.1376867,8.71502415459,2070,8.67605850654
185602,41,41 Buckingham Palace Road Westminster Borough London SW1W 0PS United Kingdom,51.4981471,-0.1436492,9.71165048544,103,9.42575757576
185705,Shaftesbury Suites London Marble Arch,41 Great Cumberland Place Westminster Borough London W1H 7LG United Kingdom,51.515755,-0.1603335,8.01453287197,289,8.26357615894
185994,Grange Strathmore Hotel,41 Queens Gate Gardens Kensington and Chelsea London SW7 5NB United Kingdom,51.4958184,-0.1813958,8.09732142857,448,7.78415841584
186892,The RE London Shoreditch,419 437 Hackney Road London E2 8PP United Kingdom,51.531979,-0.061598,7.77446808511,893,7.83313953488
187785,London City Suites,42 46 Chiswell Street City of London London EC1Y 4SB United Kingdom,51.5206309,-0.0915341,8.99783783784,740,8.72637889688
188672,St George s Hotel Wembley,43 51 Wembley Hill Road Brent London HA9 8AU United Kingdom,51.5553678,-0.2864945,8.94958745875,1212,8.7887037037
190107,The Justin James Hotel,43 Worple Road Wimbledon London SW19 4JZ United Kingdom,51.4202661,-0.211268,8.29269230769,260,8.31144578313
190367,Millennium Hotel London Mayfair,44 Grosvenor Square Westminster Borough London W1K 2HP United Kingdom,51.510574,-0.1509951,7.63479648843,1253,8.05682382134
191756,The Curtain,45 Curtain Road Hackney London EC2A 4PJ United Kingdom,51.5237209,-0.0806178,8.88333333333,30,9.46111111111
191786,45 Park Lane Dorchester Collection,45 Park Lane Westminster Borough London W1K 1PN United Kingdom,51.5063709,-0.1515359,9.60357142857,28,9.18888888889
191814,Grange Tower Bridge Hotel,45 Prescot Street City of London London E1 8GP United Kingdom,51.5115509,-0.0714919,8.80898550725,690,8.55838041431
192561,St Martins Lane A Morgans Original,45 St Martin s Lane Westminster Borough London WC2N 4HX United Kingdom,51.5104696,-0.1265824,9.07357723577,492,8.89289940828
193088,Novotel London Blackfriars,46 Blackfriars Road Southwark London SE1 8NZ United Kingdom,51.5050165,-0.1049831,8.7191588785,428,8.6645021645
193541,Canary Riverside Plaza Hotel,46 Westferry Circus Tower Hamlets London E14 8RS United Kingdom,51.5066991,-0.0280208,8.93550724638,138,8.85983606557
193679,The Marylebone Hotel,47 Welbeck Street Westminster Borough London W1G 8DN United Kingdom,51.5180207,-0.1500567,8.85701624815,677,8.97080291971
194475,The Zetter Townhouse Clerkenwell,49 50 St John s Square Islington London EC1V 4JJ United Kingdom,51.5231564,-0.1035134,8.96774193548,31,9.264
194506,The Whitechapel,49 53 New Road Tower Hamlets London E1 1HH United Kingdom,51.5161286,-0.0624458,7.63482428115,313,7.54171122995
195046,St George Hotel,49 Gloucester Place Marble Arch Westminster Borough London W1U 8JE United Kingdom,51.5182768,-0.1583511,7.01147540984,122,8.17704918033
195505,The Premier Notting Hill,5 7 Princes Square Kensington and Chelsea London W2 4NP United Kingdom,51.5127453,-0.1926437,7.3943123061,967,7.05417789757
196840,Holiday Inn London Whitechapel,5 Cavell Street Tower Hamlets London E1 2BP United Kingdom,51.5154006,-0.0572364,8.64854111406,377,8.29636363636
197217,Washington Mayfair Hotel,5 Curzon St Westminster Borough London W1J 5HL United Kingdom,51.5060237,-0.151078,7.90944206009,699,7.88468677494
197916,Radisson Blu Edwardian New Providence Wharf,5 Fairmont Avenue Canary Wharf Tower Hamlets London E14 9JB United Kingdom,51.5065578,-0.004514,9.00783972125,1148,8.98548387097
199064,Hilton London Tower Bridge,5 More London Place Tooley Street Southwark London SE1 2BY United Kingdom,51.504575,-0.082675,8.62609238452,801,8.82231404959
199865,Novotel London Wembley,5 Olympic Way Wembley Brent London HA9 0NP United Kingdom,51.5611271,-0.2787261,8.90543565148,1251,8.89182692308
203903,Threadneedles Autograph Collection,5 Threadneedle Street City of London London EC2R 8AY United Kingdom,51.5140208,-0.0854919,8.81326530612,196,8.7803030303
204099,Sanderson A Morgans Hotel,50 Berners Street Westminster Borough London W1T 3NG United Kingdom,51.5174853,-0.1372109,9.08611111111,324,8.89269230769
204423,The Arch London,50 Great Cumberland Place Westminster Borough London W1H 7FD United Kingdom,51.5159214,-0.1598794,9.23926701571,191,8.9
204614,Commodore Hotel,50 Lancaster Gate Westminster Borough London W2 3NA United Kingdom,51.5124496,-0.1795215,6.55435466946,953,7.03285371703
206177,The Westbourne Hyde Park,51 Gloucester Terrace Westminster Borough London W2 3DQ United Kingdom,51.5131074,-0.1778707,8.75236363636,275,9.22222222222
206624,The Lodge Hotel Putney,52 54 Upper Richmond Road Wandsworth London SW15 2RN United Kingdom,51.4572991,-0.2055425,8.10707070707,297,8.39166666667
206921,Shaftesbury Hyde Park International,52 56 Inverness Terrace Westminster Borough London W2 3LB United Kingdom,51.5123968,-0.186124,7.9619047619,1029,8.0719266055
207950,The Montcalm At Brewery London City,52 Chiswell Street City of London London EC1Y 4SD United Kingdom,51.5208155,-0.0915319,8.76218678815,1317,8.87073863636
209824,BEST WESTERN Maitrise Hotel Maida Vale,53 59 Kilburn High Road Maida Vale London Camden London NW6 5SB United Kingdom,51.5366053,-0.1919832,6.88419117647,816,7.58379120879
210640,Novotel London City South,53 61 Southwark Bridge Road Southwark London SE1 9HH United Kingdom,51.5054832,-0.0951196,8.58621794872,312,8.85236051502
210952,The Dorchester Dorchester Collection,53 Park Lane Westminster Borough London W1K 1QA United Kingdom,51.5074007,-0.1524593,9.20355555556,225,8.96531791908
211211,Hilton London Angel Islington,53 Upper Street Islington London N1 0UY United Kingdom,51.5360906,-0.1048176,8.68343465046,658,8.47202797203
211869,Fifty Four Boutique Hotel,54 Queens Gate Kensington and Chelsea London SW7 5JW United Kingdom,51.4963008,-0.1796853,8.27193548387,310,8.06149068323
212473,The Sumner Hotel,54 Upper Berkeley Street Westminster Borough London W1H 7QR United Kingdom,51.5152892,-0.160898,8.58383458647,266,8.32846153846
212739,W12 Rooms,54 Uxbridge Road Shepherds Bush Hammersmith and Fulham London W12 8LP United Kingdom,51.5045326,-0.2191174,8.74592592593,405,8.60746268657
213170,Shaftesbury Premier London Paddington,55 61 Westbourne Terrace Westminster Borough London W2 3UY United Kingdom,51.5153672,-0.1783271,7.224385511,1546,7.44778761062
214921,Mimi s Hotel Soho,56 57 Frith Street Westminster Borough London W1D 3JG United Kingdom,51.5140329,-0.1320651,8.23948717949,390,8.4888
215358,Holiday Inn London Oxford Circus,57 59 Welbeck Street Westminster Borough London W1G 9BL United Kingdom,51.516843,-0.1495574,7.3882231405,484,7.7244813278
215842,Dorsett Shepherds Bush,58 Shepherds Bush Green Hammersmith and Fulham London W12 8QE United Kingdom,51.5039399,-0.2244232,8.61864139021,1266,8.56579710145
217108,New Linden Hotel,59 Leinster Square Kensington and Chelsea London W2 4PS United Kingdom,51.5133832,-0.1926617,7.57511415525,876,7.6646884273
218428,Hazlitt s,6 Frith Street Soho Westminster Borough London W1D 3JA United Kingdom,51.5143447,-0.1318157,9.06265560166,241,8.88015873016
218669,Park Plaza London Waterloo,6 Hercules Road Lambeth London SE1 7DP United Kingdom,51.4982412,-0.1134715,8.66648550725,552,9.02817337461
219221,citizenM London Shoreditch,6 Holywell Lane Hackney London EC2A 3ET United Kingdom,51.5241373,-0.0786983,9.09200477327,838,9.1134
221866,Sofitel London St James,6 Waterloo Place Westminster Borough London SW1Y 4AN United Kingdom,51.5076044,-0.132266,9.22386363636,352,9.165
222218,Baglioni Hotel London The Leading Hotels of the World,60 Hyde Park gate Kensington and Chelsea London SW7 5BB United Kingdom,51.5017224,-0.1846243,9.00350877193,114,8.99444444444
222332,DoubleTree by Hilton London Islington,60 Pentonville Road Islington London N1 9LA United Kingdom,51.5322508,-0.1095714,8.68393839384,909,8.48861313869
223286,Rydges Kensington Hotel,61 Gloucester Road Kensington and Chelsea London SW7 4PE United Kingdom,51.4956883,-0.1827878,8.21189516129,496,7.82926829268
223782,Club Quarters Hotel Lincoln s Inn Fields,61 Lincoln s Inn Fields Camden London WC2A 3JW United Kingdom,51.5160988,-0.1181749,9.02230026339,1139,8.69544787078
225793,Clayton Hotel Chiswick,626 Chiswick High St Chiswick London W4 5RY United Kingdom,51.4924184,-0.2784701,8.4751626898,922,8.54074733096
226715,Park Plaza London Park Royal,628 Western Avenue London W3 0TA United Kingdom,51.527262,-0.282992,8.90101522843,197,8.89847328244
226938,Best Western Palm Hotel,64 76 Hendon Way London NW2 2NL United Kingdom,51.5634756,-0.2042758,7.90979978925,949,7.88025477707
228012,The Piccadilly London West End,65 73 Shaftesbury Avenue Westminster Borough London W1D 6EX United Kingdom,51.5121957,-0.1318384,9.08382222222,1125,8.82241054614
229592,Kingsway Hall Hotel,66 Great Queen Street Covent Garden Camden London WC2B 5BX United Kingdom,51.5158643,-0.1200625,8.47408491947,683,8.54694960212
230275,Mandarin Oriental Hyde Park London,66 Knightsbridge Westminster Borough London SW1X 7LA United Kingdom,51.5022081,-0.1599428,8.18941176471,85,9.06170212766
230436,Radisson Blu Edwardian Vanderbilt,68 86 Cromwell Road Kensington Kensington and Chelsea London SW7 5BT United Kingdom,51.4953691,-0.1818966,8.1719568567,1298,8.27081712062
231863,Hotel Cafe Royal,68 Regent Street West End Mayfair Westminster Borough London W1B 4DY United Kingdom,51.5100916,-0.1359431,9.20576923077,364,9.46255924171
232333,Grange Rochester Hotel,69 Vincent Square Westminster Borough London SW1P 2PA United Kingdom,51.4942654,-0.1366026,8.10467032967,364,8.37525252525
232697,Gainsborough Hotel,7 11 Queensberry Place Kensington and Chelsea London SW7 2DL United Kingdom,51.4948416,-0.1772056,6.67633209418,807,7.67136752137
233609,St James Hotel Club Mayfair,7 8 Park Place Westminster Borough London SW1A 1LP United Kingdom,51.5061587,-0.1402803,8.61185185185,135,8.82934782609
233744,Apex London Wall Hotel,7 9 Copthall Avenue City of London London EC2R 7NJ United Kingdom,51.5160484,-0.0880181,9.24256292906,437,8.856640625
234181,Seraphine Kensington Gardens Hotel,7 9 High Street Kensington Kensington and Chelsea London W8 5NP United Kingdom,51.5021027,-0.187901,7.45387096774,310,7.22959183673
234779,Club Quarters Hotel Gracechurch,7 Gracechurch Street City of London London EC3V 0DR United Kingdom,51.5127964,-0.0847973,8.28621940163,1103,8.07552356021
235882,Grange Blooms Hotel,7 Montague Street Bloomsbury Camden London WC1B 5BP United Kingdom,51.5196913,-0.1254243,8.25780346821,173,8.38111111111
236055,DoubleTree by Hilton Hotel London Tower of London,7 Pepys Street City of London London EC3N 4AF United Kingdom,51.5108412,-0.0780581,8.66276463263,3212,8.7617768595
240501,Novotel London Excel,7 Western Gateway Royal Victoria Dock Newham London E16 1AA United Kingdom,51.5077198,0.0229805,8.49599303136,574,8.50640668524
241169,Mercure London Bridge,71 79 Southwark Street Southwark London SE1 0JA United Kingdom,51.5052587,-0.099176,8.36280193237,414,8.73966244726
241740,Grange Wellington Hotel,71 Vincent Square Westminster Borough London SW1P 2PA United Kingdom,51.4944319,-0.1363756,8.84369158879,428,8.726953125
242324,Hotel Cavendish,75 Gower Street Camden London WC1E 6HJ United Kingdom,51.5220522,-0.132414,6.44206521739,920,6.29512195122
243244,Park Grand London Hyde Park,78 82 Westbourne Terrace Westminster Borough London W2 6QA United Kingdom,51.5157316,-0.1802179,7.47252747253,819,7.55102040816
244063,Shaftesbury Metropolis London Hyde Park,78 84 Sussex Gardens Westminster Borough London W2 1UH United Kingdom,51.5166887,-0.1706147,7.68547945205,1095,7.725
245693,The Exhibitionist Hotel,8 10 Queensberry Place Kensington and Chelsea London SW7 2EA United Kingdom,51.4947754,-0.177789,8.35410447761,804,8.49510309278
246693,Ten Manchester Street Hotel,8 12 Manchester Street Westminster Borough London W1U 4DG United Kingdom,51.5188,-0.153839,8.84816513761,218,8.725
246911,Mercure London Hyde Park,8 14 Talbot Sq Paddington Westminster Borough London W2 1TS United Kingdom,51.5151149,-0.1743857,8.65067873303,221,8.49019607843
247132,London Bridge Hotel,8 18 London Bridge St Southwark London SE1 9SG United Kingdom,51.5052188,-0.088166,8.60419161677,167,8.86494845361
247439,The Beaumont Hotel,8 Balderton Street Brown Hart Gardens Westminster Borough London W1K 6TF United Kingdom,51.513055,-0.152257,9.49083333333,120,9.27613636364
247613,The Grand at Trafalgar Square,8 Northumberland Avenue Westminster Borough London WC2N 5BY United Kingdom,51.506935,-0.126012,8.31664392906,733,8.27017114914
248346,Club Quarters Hotel Trafalgar Square,8 Northumberland Avenue Westminster Borough London WC2N 5BY United Kingdom,51.506935,-0.126012,8.57111111111,945,8.38837209302
249291,The Laslett,8 Pembridge Garden Kensington and Chelsea London W2 4DU United Kingdom,51.5095259,-0.1967234,8.8684,250,8.95302013423
250886,The Belgrave Hotel,80 86 Belgrave Road Westminster Borough London SW1V 2BJ United Kingdom,51.4901051,-0.1381355,8.75339602926,957,8.22455242967
251843,TheWesley,81 103 Euston Street Camden London NW1 2EZ United Kingdom,51.5265353,-0.1361682,8.02408236347,1117,7.95161870504
253051,The Hoxton Shoreditch,81 Great Eastern Street Islington London EC2A 3HU United Kingdom,51.5255136,-0.082927,9.00132547865,679,8.99828244275
253730,The Cavendish London,81 Jermyn Street Westminster Borough London SW1Y 6JF United Kingdom,51.5077459,-0.1378733,8.88870192308,416,8.64814814815
254146,Avo Hotel,82 Dalston Lane Hackney London E8 3AH United Kingdom,51.5460628,-0.0700817,8.14879518072,166,7.98428571429
254312,Hotel 82 London,82 Gloucester Place Westminster Borough London W1U 6HN United Kingdom,51.5195857,-0.1584803,7.46994382022,712,7.60490196078
255339,Best Western Plus Seraphine Hammersmith Hotel,84 King Street Hammersmith and Fulham London W6 0QW United Kingdom,51.4926269,-0.2288598,7.74279946164,743,7.90897435897
256341,The Zetter Hotel,86 88 Clerkenwell Road Islington London EC1M 5RJ United Kingdom,51.522672,-0.1036841,8.93163841808,177,8.85294117647
256518,Grosvenor House Suites by Jumeirah Living,86 Park Lane Westminster Borough London W1K 7TN United Kingdom,51.509841,-0.1552193,8.551,100,8.85520833333
256880,88 Studios,88 Holland Road Kensington and Chelsea London W14 8BN United Kingdom,51.4992789,-0.2090733,8.48910675381,459,8.1923857868
257339,Adria Boutique Hotel,88 Queens Gate Kensington and Chelsea London SW7 5AB United Kingdom,51.4933372,-0.1788931,8.76536796537,231,8.88695652174
257812,Sydney House Chelsea,9 11 Sydney Street Kensington and Chelsea London SW3 6PU United Kingdom,51.4910062,-0.1717691,8.69651162791,258,8.70625
258070,Radisson Blu Edwardian Bloomsbury Street,9 13 Bloomsbury Street Nr Covent Garden Camden London WC1B 3QD United Kingdom,51.517608,-0.1276253,8.58871331828,886,8.62551020408
258996,Hotel Moonlight,9 Knaresborough Place Kensington and Chelsea London SW5 0TP United Kingdom,51.4940285,-0.1910497,9.08912280702,285,8.76261682243
260324,Thistle Hyde Park,90 92 Lancaster Gate Westminster Borough London W2 3NR United Kingdom,51.5112451,-0.1808938,7.69030100334,299,8.05426356589
261077,DoubleTree by Hilton London West End,92 Southampton Row Camden London WC1B 4BH United Kingdom,51.5201065,-0.1221393,8.27840172786,926,8.34662004662
262452,Holiday Inn London Kensington Forum,97 Cromwell Road Kensington and Chelsea London SW7 4DN United Kingdom,51.4942305,-0.1851141,7.8482023968,1502,7.71522248244
263954,Radisson Blu Edwardian Kenilworth,97 Great Russell Street Bloomsbury Camden London WC1B 3LB United Kingdom,51.5179725,-0.1280495,8.21921443737,942,8.15541871921
265323,Melia White House Hotel,Albany Street London NW1 3UP United Kingdom,51.5298597,-0.1444623,8.25350609756,656,8.38615819209
266314,The Waldorf Hilton,Aldwych Westminster Borough London WC2B 4DD United Kingdom,51.5131979,-0.1174504,8.339375,800,8.51858190709
283504,The Capital,Basil Street Knightsbridge Kensington and Chelsea London SW3 1AT United Kingdom,51.4997486,-0.1615242,9.06137931034,145,8.89770114943
283712,Megaro Hotel,Belgrove Street Camden London WC1H 8AB United Kingdom,51.5294411,-0.1233745,8.856625,800,8.68443877551
287156,Thistle Holborn The Kingsley,Bloomsbury Way Camden London WC1A 2SD United Kingdom,51.5179659,-0.1234343,8.5514809591,709,8.40568475452
287935,The Westbury A Luxury Collection Hotel Mayfair London,Bond Street Mayfair Westminster Borough London W1S 2YF United Kingdom,51.5144418,-0.146432,8.1401384083,289,8.30548780488
289557,Crowne Plaza London Battersea,Bridges Court Road Battersea London SW11 3BE United Kingdom,51.4689559,-0.1787256,8.74889643463,589,8.9
290146,Amba Hotel Marble Arch,Bryanston Street Marble Arch Westminster Borough London W1H 7EH United Kingdom,51.5144004,-0.1565506,8.56354992076,1262,8.41167400881
291408,Taj 51 Buckingham Gate Suites and Residences,Buckingham Gate Westminster Borough London SW1E 6AF United Kingdom,51.498861,-0.1374897,9.55488721805,133,9.40987654321
292181,Jumeirah Carlton Tower,Cadogan Place Kensington and Chelsea London SW1X 9PY United Kingdom,51.4973568,-0.1576728,8.38289473684,76,8.77553191489
294505,Holiday Inn London Regent s Park,Carburton Street Westminster Borough London W1W 5EE United Kingdom,51.5222472,-0.1426128,8.17578692494,826,8.236900369
295900,Thistle Euston,Cardington Street Euston Camden London NW1 2LP United Kingdom,51.5291423,-0.1372782,8.2636738056,1214,8.35927419355
297114,The Connaught,Carlos Place Westminster Borough London W1K 2AL United Kingdom,51.5101556,-0.1496314,9.28888888889,45,9.30943396226
298235,Doubletree By Hilton London Greenwich,Catherine Grove Greenwich Greenwich London SE10 8BB United Kingdom,51.474469,-0.019428,8.77160493827,972,8.85667351129
299346,The Chelsea Harbour Hotel,Chelsea Harbour Hammersmith and Fulham London SW10 0XG United Kingdom,51.4756558,-0.1813888,8.56872727273,550,8.6527607362
300548,Grange City Hotel,Coopers Row City of London London EC3N 2BQ United Kingdom,51.5110114,-0.0771251,8.66296296296,405,8.75617977528
300953,Holiday Inn London Bloomsbury,Coram Street Camden London WC1N 1HT United Kingdom,51.5241248,-0.1258066,8.19375,1216,8.21071932299
316748,Holiday Inn London Wembley,Empire Way Wembley Brent London HA9 8DS United Kingdom,51.5590955,-0.284704,8.29886363636,1848,8.30208955224
319202,Best Western PLUS Epping Forest,Epping Forest 30 Oak Hill London IG8 9NY United Kingdom,51.603207,0.010607,7.30457317073,328,7.83212435233
320202,St Pancras Renaissance Hotel London,Euston Road Camden London NW1 2AR United Kingdom,51.5267769,-0.1324905,8.73147340889,1147,8.95057471264
321349,DoubleTree By Hilton London Excel,Excel 2 Festoon Way Royal Victoria Dock Newham London E16 1RH United Kingdom,51.507377,0.038657,8.44870218579,1464,8.3164126612
325013,Millennium Copthorne Hotels at Chelsea Football Club,Fulham Road Stamford Bridge Hammersmith and Fulham London SW6 1HS United Kingdom,51.481663,-0.1909565,8.06271379704,877,8.42933333333
326476,Durrants Hotel,George Street Westminster Borough London W1H 5BJ United Kingdom,51.5179386,-0.1529794,8.00192837466,726,8.30169971671
332979,The Cumberland A Guoman Hotel,Great Cumberland Place Westminster Borough London W1H 7DL United Kingdom,51.514879,-0.1606501,7.34770591487,1809,7.73151260504
335096,London Marriott Hotel Grosvenor Square,Grosvenor Square Westminster Borough London W1K 6JP United Kingdom,51.511579,-0.1500193,7.7234375,256,8.27355371901
336799,Flemings Mayfair,Half Moon Street Westminster Borough London W1J 7BH United Kingdom,51.5064607,-0.1454198,8.67715430862,499,8.73944636678
337298,Hilton London Green Park,Half Moon Street Westminster Borough London W1J 7BN United Kingdom,51.5064534,-0.1456146,7.27892561983,484,7.34015748031
337782,COMO The Halkin,Halkin Street Westminster Borough London SW1X 7DJ United Kingdom,51.4988977,-0.1562015,9.26896551724,29,9.33333333333
337811,Four Seasons Hotel London at Park Lane,Hamilton Place Park Lane Westminster Borough London W1J 7DR United Kingdom,51.504439,-0.149911,9.37032967033,91,9.23725490196
338328,Hotel 55,Hanger Lane Ealing London W5 3HL United Kingdom,51.5213303,-0.2915052,8.59272727273,385,8.30491803279
344085,Hilton London Kensington Hotel,Holland Park Avenue Kensington and Chelsea London W11 4UL United Kingdom,51.5051084,-0.213266,7.77642276423,1845,7.85160142349
346688,The Lanesborough,Hyde Park Corner Westminster Borough London SW1X 7TA United Kingdom,51.50303,-0.15242,9.42903225806,31,9.35
348116,DoubleTree by Hilton London Chelsea,Imperial Road Hammersmith and Fulham London SW6 2GA United Kingdom,51.475172,-0.1870629,8.39727272727,550,8.15138888889
356576,Great Northern Hotel A Tribute Portfolio Hotel London,King s Cross St Pancras International Station Pancras Road Camden London N1C 4TB United Kingdom,51.531427,-0.126133,8.75677419355,620,9.19306930693
357196,De Vere Devonport House,King William Walk Greenwich London SE10 9JW United Kingdom,51.480672,-0.0071375,8.19902654867,1130,8.20227272727
361190,Hilton London Wembley,Lakeside Way Brent London HA9 0BU United Kingdom,51.5576962,-0.2835263,8.76340368208,2227,8.85711282411
363417,Corus Hotel Hyde Park,Lancaster Gate Westminster Borough London W2 3LG United Kingdom,51.5119446,-0.179939,7.52010771993,1114,7.79690265487
364531,London Elizabeth Hotel,Lancaster Terrace Hyde Park Westminster Borough London W2 3PF United Kingdom,51.5120219,-0.1762414,6.9686440678,236,7.0880952381
364767,Lancaster London,Lancaster Terrace Westminster Borough London W2 2TY United Kingdom,51.5119446,-0.179939,8.27066052227,651,8.35232876712
372353,London Marriott Hotel County Hall,London County Hall Westminster Bridge Road Lambeth London SE1 7PB United Kingdom,51.5016102,-0.1191545,8.54549356223,233,8.39807692308
372810,Jumeirah Lowndes Hotel,Lowndes Street Kensington and Chelsea London SW1X 9ES United Kingdom,51.4993652,-0.1576613,8.56956521739,184,8.62731707317
375107,The Mandeville Hotel,Mandeville Place Westminster Borough London W1U 2BE United Kingdom,51.5165165,-0.1509735,8.44444444444,846,8.59494949495
375953,Hallmark Hotel London Chigwell Prince Regent,Manor Road London IG8 8AE United Kingdom,51.6068054,0.0590416,6.56695464363,463,7.57929515419
387956,Apex City Of London Hotel,No 1 Seething Lane City of London London EC3N 4AX United Kingdom,51.5104624,-0.0795502,9.11868446139,1049,8.80016051364
389730,COMO Metropolitan London,Old Park Lane Westminster Borough London W1K 1LB United Kingdom,51.5050355,-0.1500864,8.9027972028,143,9.11393442623
389873,Aloft London Excel,One Eastern Gateway Royal Victoria Dock Newham London E16 1FR United Kingdom,51.5083719,0.0355768,8.62824156306,1126,8.81642651297
390999,Ham Yard Hotel,One Ham Yard Westminster Borough London W1D 7DT United Kingdom,51.511174,-0.1349904,9.48794326241,141,9.51770833333
395942,Grosvenor House A JW Marriott Hotel,Park Lane Westminster Borough London W1K 7TN United Kingdom,51.5082019,-0.1545589,7.76516393443,244,8.07880434783
403425,The Rookery,Peters Lane Cowcross Street Islington London EC1M 6DS United Kingdom,51.520171,-0.102463,9.13601532567,261,9.03561643836
410514,Sheraton Grand London Park Lane,Piccadilly Westminster Borough London W1J 7BX United Kingdom,51.5092876,-0.1370062,7.94782608696,115,8.29230769231
416936,London Marriott Maida Vale,Plaza Parade Camden London NW6 5RP United Kingdom,51.5357597,-0.1902591,8.02771618625,451,8.21726618705
417387,The Langham London,Portland Place Westminster Borough London W1B 1JA United Kingdom,51.517876,-0.1440647,9.2747763864,559,9.3376
417946,The Ned,Poultry 27 City of London London EC2R 8AJ United Kingdom,51.5135929,-0.0907833,9.17743190661,257,9.48
429239,K West Hotel Spa,Richmond Way Hammersmith and Fulham London W14 0AX United Kingdom,51.5013149,-0.2174459,8.37480314961,762,8.43772102161
435995,Crowne Plaza London Docklands,Royal Victoria Dock Western Gateway Newham London E16 1AL United Kingdom,51.5083537,0.0198855,8.79696010133,1579,8.80546075085
440985,Copthorne Tara Hotel London Kensington,Scarsdale Place Kensington Kensington and Chelsea London W8 5SY United Kingdom,51.499046,-0.1917073,8.09424259363,3578,8.11125068269
452196,Sloane Square Hotel,Sloane Square Kensington and Chelsea London SW1W 8EG United Kingdom,51.4927325,-0.1573708,8.25692640693,462,8.10573476703
454064,Hilton London Canary Wharf,South Quay Marsh Wall Tower Hamlets London E14 9SH United Kingdom,51.5007324,-0.01655,9.01349772875,1541,8.97864476386
455605,Grange Holborn Hotel,Southampton Row Bloomsbury Camden London WC1B 4AR United Kingdom,51.519616,-0.1218432,8.27700831025,361,8.59821428571
457425,The Stafford London,St James s Place Westminster Borough London SW1A 1NJ United Kingdom,51.5059087,-0.1403795,9.059,200,9.15899280576
457625,The Tower A Guoman Hotel,St Katherines Way Tower Hamlets London E1W 1LD United Kingdom,51.5064721,-0.0716893,8.70262582057,1828,8.40252631579
462866,The Savoy,Strand Westminster Borough London WC2R 0EU United Kingdom,51.5111922,-0.1194006,9.33796296296,540,9.50634920635
463406,The May Fair Hotel,Stratton Street Mayfair Westminster Borough London W1J 8LT United Kingdom,51.5078943,-0.1436707,8.327875,800,8.49931153184
465852,Amba Hotel Charing Cross,The Strand Westminster Borough London WC2N 5HX United Kingdom,51.508236,-0.1261963,9.39171974522,785,9.09944289694
466995,Holiday Inn London Brent Cross,Tilling Road London NW2 1LP United Kingdom,51.5731061,-0.2233332,7.8752886836,433,7.93977695167
467428,Bermondsey Square Hotel A Bespoke Hotel,Tower Bridge Road Southwark London SE1 3UN United Kingdom,51.4991134,-0.0790969,8.31303258145,399,8.27636363636
503073,Crowne Plaza London Ealing,Western Avenue Ealing London W5 1HG United Kingdom,51.5403942,-0.3697581,8.50581113801,413,8.4928358209
503486,Good Hotel London,Western Gateway Newham London E16 1FA United Kingdom,51.5084195,0.0253216,8.12218114603,541,8.05348837209
504027,Park Plaza Westminster Bridge London,Westminster Bridge Road Lambeth London SE1 7UT United Kingdom,51.5009609,-0.1165913,8.65286639482,4169,8.77491422036
508196,Hotel du Vin Cannizaro House Wimbledon,Westside Wimbledon Common Wimbledon London SW19 4UE United Kingdom,51.4242413,-0.2293503,8.30899653979,289,8.57189542484
508552,Thistle Trafalgar Square The Royal Trafalgar,Whitcomb Street Trafalgar Square Westminster Borough London WC2H 7HG United Kingdom,51.509133,-0.130189,8.42912205567,467,8.34887218045
509019,Corinthia Hotel London,Whitehall Place Westminster Borough London SW1A 2BD United Kingdom,51.5045583,-0.1262584,9.48685446009,213,9.2821656051
512545,The Berkeley,Wilton Place Knightsbridge Westminster Borough London SW1X 7RL United Kingdom,51.5020912,-0.1577795,9.064,100,9.15142857143
512645,Holiday Inn London Kensington,Wrights Lane Kensington and Chelsea London W8 5SP United Kingdom,51.499981,-0.1928791,7.72359104046,2768,7.98046075085
